{"obj_cnt": 4, "camera": {"focal_type": "tele", "fov": [26.027658, 14.469606], "hight": 79.594, "latitude": 23.469303, "longitude": 113.398506, "pitch": -35.42, "resolution": [1280, 720], "roll": 0.0, "yaw": 96.89}, "camera_id": 0, "global_pos": {"altitude": 137.00079345703125, "latitude": 23.469303662059904, "longitude": 113.39850939497889}, "objs": [{"bbox": {"h": 0.0502, "w": 0.0132, "x": 0.5296, "y": 0.697}, "cls_id": 30, "pic": "None", "pos": {"altitude": 57.39299774169922, "latitude": 23.4691950115205, "longitude": 113.39935616422017}, "timestamp": 3754335, "track_id": 1}, {"bbox": {"h": 0.0529, "w": 0.0125, "x": 0.6179, "y": 0.5095}, "cls_id": 30, "pic": "None", "pos": {"altitude": 57.39299774169922, "latitude": 23.46914367087648, "longitude": 113.39945525418709}, "timestamp": 3754335, "track_id": 2}, {"bbox": {"h": 0.0529, "w": 0.0109, "x": 0.332, "y": 0.5828}, "cls_id": 30, "pic": "TH792346137337543343", "pos": {"altitude": 57.39299774169922, "latitude": 23.46927146937418, "longitude": 113.39942822423423}, "timestamp": 3754335, "track_id": 3}, {"bbox": {"h": 0.0502, "w": 0.0117, "x": 0.4617, "y": 0.4252}, "cls_id": 30, "pic": "None", "pos": {"altitude": 57.39299774169922, "latitude": 23.469206744586938, "longitude": 113.39951890199157}, "timestamp": 3754335, "track_id": 4}], "push_count": 297, "time": 1703578458241, "uav_id": "TH7923461373"}
{"obj_cnt": 4, "camera": {"focal_type": "tele", "fov": [26.027658, 14.469606], "hight": 79.594, "latitude": 23.469303, "longitude": 113.398506, "pitch": -35.42, "resolution": [1280, 720], "roll": 0.0, "yaw": 96.89}, "camera_id": 0, "global_pos": {"altitude": 137.00079345703125, "latitude": 23.469303662059904, "longitude": 113.39850939497889}, "objs": [{"bbox": {"h": 0.0502, "w": 0.0132, "x": 0.5296, "y": 0.697}, "cls_id": 30, "pic": "None", "pos": {"altitude": 57.39299774169922, "latitude": 23.4691950115205, "longitude": 113.39935616422017}, "timestamp": 3754390, "track_id": 1}, {"bbox": {"h": 0.0529, "w": 0.0125, "x": 0.6179, "y": 0.5095}, "cls_id": 30, "pic": "None", "pos": {"altitude": 57.39299774169922, "latitude": 23.46914367087648, "longitude": 113.39945525418709}, "timestamp": 3754390, "track_id": 2}, {"bbox": {"h": 0.0529, "w": 0.0109, "x": 0.332, "y": 0.5828}, "cls_id": 30, "pic": "None", "pos": {"altitude": 57.39299774169922, "latitude": 23.46927146937418, "longitude": 113.39942822423423}, "timestamp": 3754390, "track_id": 3}, {"bbox": {"h": 0.0502, "w": 0.0117, "x": 0.4617, "y": 0.4252}, "cls_id": 30, "pic": "None", "pos": {"altitude": 57.39299774169922, "latitude": 23.469206744586938, "longitude": 113.39951890199157}, "timestamp": 3754390, "track_id": 4}], "push_count": 298, "time": 1703578458295, "uav_id": "TH7923461373"}
{"obj_cnt": 4, "camera": {"focal_type": "tele", "fov": [26.027658, 14.469606], "hight": 79.593, "latitude": 23.469303, "longitude": 113.398506, "pitch": -35.42, "resolution": [1280, 720], "roll": 0.0, "yaw": 96.89}, "camera_id": 0, "global_pos": {"altitude": 137.00079345703125, "latitude": 23.469303662059904, "longitude": 113.39850939497889}, "objs": [{"bbox": {"h": 0.0502, "w": 0.0132, "x": 0.5289, "y": 0.697}, "cls_id": 30, "pic": "None", "pos": {"altitude": 57.39399719238281, "latitude": 23.469195293973225, "longitude": 113.39935619060552}, "timestamp": 3754523, "track_id": 1}, {"bbox": {"h": 0.0529, "w": 0.0125, "x": 0.6179, "y": 0.5095}, "cls_id": 30, "pic": "None", "pos": {"altitude": 57.39399719238281, "latitude": 23.46914367288598, "longitude": 113.39945524230009}, "timestamp": 3754523, "track_id": 2}, {"bbox": {"h": 0.0529, "w": 0.0109, "x": 0.332, "y": 0.5828}, "cls_id": 30, "pic": "None", "pos": {"altitude": 57.39399719238281, "latitude": 23.469271469778928, "longitude": 113.39942821268664}, "timestamp": 3754523, "track_id": 3}, {"bbox": {"h": 0.0502, "w": 0.0117, "x": 0.4617, "y": 0.4252}, "cls_id": 30, "pic": "None", "pos": {"altitude": 57.39399719238281, "latitude": 23.469206745804435, "longitude": 113.39951888930536}, "timestamp": 3754523, "track_id": 4}], "push_count": 299, "time": 1703578458429, "uav_id": "TH7923461373"}
{"obj_cnt": 4, "camera": {"focal_type": "tele", "fov": [26.027658, 14.469606], "hight": 79.593, "latitude": 23.469303, "longitude": 113.398506, "pitch": -35.42, "resolution": [1280, 720], "roll": 0.0, "yaw": 96.89}, "camera_id": 0, "global_pos": {"altitude": 136.98585510253906, "latitude": 23.46930363073842, "longitude": 113.39850946367889}, "objs": [{"bbox": {"h": 0.0502, "w": 0.014, "x": 0.5281, "y": 0.6956}, "cls_id": 30, "pic": "None", "pos": {"altitude": 57.39399719238281, "latitude": 23.469195366012553, "longitude": 113.39935693130046}, "timestamp": 3754561, "track_id": 1}, {"bbox": {"h": 0.0529, "w": 0.0125, "x": 0.6179, "y": 0.5095}, "cls_id": 30, "pic": "None", "pos": {"altitude": 57.39399719238281, "latitude": 23.46914367288598, "longitude": 113.39945524230009}, "timestamp": 3754561, "track_id": 2}, {"bbox": {"h": 0.0529, "w": 0.0109, "x": 0.332, "y": 0.5828}, "cls_id": 30, "pic": "None", "pos": {"altitude": 57.39399719238281, "latitude": 23.469271469778928, "longitude": 113.39942821268664}, "timestamp": 3754561, "track_id": 3}, {"bbox": {"h": 0.0502, "w": 0.0117, "x": 0.4625, "y": 0.4252}, "cls_id": 30, "pic": "None", "pos": {"altitude": 57.39399719238281, "latitude": 23.4692063807935, "longitude": 113.39951884122151}, "timestamp": 3754561, "track_id": 4}], "push_count": 300, "time": 1703578458466, "uav_id": "TH7923461373"}
{"obj_cnt": 4, "camera": {"focal_type": "tele", "fov": [26.027658, 14.469606], "hight": 79.587, "latitude": 23.469303, "longitude": 113.398506, "pitch": -35.42, "resolution": [1280, 720], "roll": 0.0, "yaw": 96.89}, "camera_id": 0, "global_pos": {"altitude": 136.98585510253906, "latitude": 23.46930363073842, "longitude": 113.39850946367889}, "objs": [{"bbox": {"h": 0.0516, "w": 0.014, "x": 0.5289, "y": 0.6956}, "cls_id": 30, "pic": "None", "pos": {"altitude": 57.400001525878906, "latitude": 23.469195097162945, "longitude": 113.39935646513734}, "timestamp": 3754723, "track_id": 1}, {"bbox": {"h": 0.0529, "w": 0.0125, "x": 0.6171, "y": 0.5095}, "cls_id": 30, "pic": "None", "pos": {"altitude": 57.400001525878906, "latitude": 23.469144034919317, "longitude": 113.39945521698851}, "timestamp": 3754723, "track_id": 2}, {"bbox": {"h": 0.0529, "w": 0.0109, "x": 0.3312, "y": 0.5828}, "cls_id": 30, "pic": "None", "pos": {"altitude": 57.400001525878906, "latitude": 23.46927181025123, "longitude": 113.39942818784371}, "timestamp": 3754723, "track_id": 3}, {"bbox": {"h": 0.0502, "w": 0.0117, "x": 0.4617, "y": 0.4252}, "cls_id": 30, "pic": "None", "pos": {"altitude": 57.400001525878906, "latitude": 23.469206753118705, "longitude": 113.39951881309125}, "timestamp": 3754723, "track_id": 4}], "push_count": 301, "time": 1703578458629, "uav_id": "TH7923461373"}
{"obj_cnt": 4, "camera": {"focal_type": "tele", "fov": [26.027658, 14.469606], "hight": 79.587, "latitude": 23.469303, "longitude": 113.398506, "pitch": -35.42, "resolution": [1280, 720], "roll": 0.0, "yaw": 96.89}, "camera_id": 0, "global_pos": {"altitude": 136.98585510253906, "latitude": 23.46930363073842, "longitude": 113.39850946367889}, "objs": [{"bbox": {"h": 0.0516, "w": 0.014, "x": 0.5289, "y": 0.697}, "cls_id": 30, "pic": "None", "pos": {"altitude": 57.400001525878906, "latitude": 23.46919518588831, "longitude": 113.39935574612676}, "timestamp": 3754759, "track_id": 1}, {"bbox": {"h": 0.0529, "w": 0.0125, "x": 0.6171, "y": 0.5095}, "cls_id": 30, "pic": "None", "pos": {"altitude": 57.400001525878906, "latitude": 23.469144034919317, "longitude": 113.39945521698851}, "timestamp": 3754759, "track_id": 2}, {"bbox": {"h": 0.0529, "w": 0.0109, "x": 0.3312, "y": 0.5828}, "cls_id": 30, "pic": "None", "pos": {"altitude": 57.400001525878906, "latitude": 23.46927181025123, "longitude": 113.39942818784371}, "timestamp": 3754759, "track_id": 3}, {"bbox": {"h": 0.0502, "w": 0.0117, "x": 0.4617, "y": 0.4252}, "cls_id": 30, "pic": "None", "pos": {"altitude": 57.400001525878906, "latitude": 23.469206753118705, "longitude": 113.39951881309125}, "timestamp": 3754759, "track_id": 4}], "push_count": 302, "time": 1703578458665, "uav_id": "TH7923461373"}
{"obj_cnt": 4, "camera": {"focal_type": "tele", "fov": [26.027658, 14.469606], "hight": 79.587, "latitude": 23.469303, "longitude": 113.398506, "pitch": -35.42, "resolution": [1280, 720], "roll": 0.0, "yaw": 96.89}, "camera_id": 0, "global_pos": {"altitude": 136.98585510253906, "latitude": 23.46930363073842, "longitude": 113.39850946367889}, "objs": [{"bbox": {"h": 0.0516, "w": 0.014, "x": 0.5289, "y": 0.697}, "cls_id": 30, "pic": "None", "pos": {"altitude": 57.400001525878906, "latitude": 23.46919518588831, "longitude": 113.39935574612676}, "timestamp": 3754794, "track_id": 1}, {"bbox": {"h": 0.0529, "w": 0.0125, "x": 0.6171, "y": 0.5095}, "cls_id": 30, "pic": "None", "pos": {"altitude": 57.400001525878906, "latitude": 23.469144034919317, "longitude": 113.39945521698851}, "timestamp": 3754794, "track_id": 2}, {"bbox": {"h": 0.0529, "w": 0.0109, "x": 0.3304, "y": 0.5828}, "cls_id": 30, "pic": "None", "pos": {"altitude": 57.400001525878906, "latitude": 23.469272148304547, "longitude": 113.39942823237614}, "timestamp": 3754794, "track_id": 3}, {"bbox": {"h": 0.0516, "w": 0.0117, "x": 0.4617, "y": 0.4252}, "cls_id": 30, "pic": "None", "pos": {"altitude": 57.400001525878906, "latitude": 23.46920679943318, "longitude": 113.39951834771061}, "timestamp": 3754794, "track_id": 4}], "push_count": 303, "time": 1703578458699, "uav_id": "TH7923461373"}
{"obj_cnt": 4, "camera": {"focal_type": "tele", "fov": [26.027658, 14.469606], "hight": 79.587, "latitude": 23.469303, "longitude": 113.398506, "pitch": -35.42, "resolution": [1280, 720], "roll": 0.0, "yaw": 96.89}, "camera_id": 0, "global_pos": {"altitude": 136.98585510253906, "latitude": 23.46930363073842, "longitude": 113.39850946367889}, "objs": [{"bbox": {"h": 0.0516, "w": 0.014, "x": 0.5289, "y": 0.697}, "cls_id": 30, "pic": "None", "pos": {"altitude": 57.400001525878906, "latitude": 23.46919518588831, "longitude": 113.39935574612676}, "timestamp": 3754870, "track_id": 1}, {"bbox": {"h": 0.0529, "w": 0.0125, "x": 0.6171, "y": 0.5095}, "cls_id": 30, "pic": "None", "pos": {"altitude": 57.400001525878906, "latitude": 23.469144034919317, "longitude": 113.39945521698851}, "timestamp": 3754870, "track_id": 2}, {"bbox": {"h": 0.0529, "w": 0.0109, "x": 0.3312, "y": 0.5828}, "cls_id": 30, "pic": "None", "pos": {"altitude": 57.400001525878906, "latitude": 23.46927181025123, "longitude": 113.39942818784371}, "timestamp": 3754870, "track_id": 3}, {"bbox": {"h": 0.0516, "w": 0.0117, "x": 0.4617, "y": 0.4252}, "cls_id": 30, "pic": "None", "pos": {"altitude": 57.400001525878906, "latitude": 23.46920679943318, "longitude": 113.39951834771061}, "timestamp": 3754870, "track_id": 4}], "push_count": 304, "time": 1703578458775, "uav_id": "TH7923461373"}
{"obj_cnt": 4, "camera": {"focal_type": "tele", "fov": [26.027658, 14.469606], "hight": 79.587, "latitude": 23.469303, "longitude": 113.398506, "pitch": -35.42, "resolution": [1280, 720], "roll": 0.0, "yaw": 96.89}, "camera_id": 0, "global_pos": {"altitude": 136.98585510253906, "latitude": 23.46930363073842, "longitude": 113.39850946367889}, "objs": [{"bbox": {"h": 0.0516, "w": 0.014, "x": 0.5289, "y": 0.697}, "cls_id": 30, "pic": "None", "pos": {"altitude": 57.39000701904297, "latitude": 23.469195285888304, "longitude": 113.39935574612738}, "timestamp": 3754922, "track_id": 1}, {"bbox": {"h": 0.0529, "w": 0.0125, "x": 0.6179, "y": 0.5095}, "cls_id": 30, "pic": "None", "pos": {"altitude": 57.39000701904297, "latitude": 23.46914378495831, "longitude": 113.39945517088813}, "timestamp": 3754922, "track_id": 2}, {"bbox": {"h": 0.0529, "w": 0.0109, "x": 0.3312, "y": 0.5828}, "cls_id": 30, "pic": "None", "pos": {"altitude": 57.39000701904297, "latitude": 23.46927191025123, "longitude": 113.39942818784442}, "timestamp": 3754922, "track_id": 3}, {"bbox": {"h": 0.0516, "w": 0.0117, "x": 0.4617, "y": 0.4252}, "cls_id": 30, "pic": "None", "pos": {"altitude": 57.39000701904297, "latitude": 23.46920689943318, "longitude": 113.39951834771139}, "timestamp": 3754922, "track_id": 4}], "push_count": 305, "time": 1703578458827, "uav_id": "TH7923461373"}
{"obj_cnt": 4, "camera": {"focal_type": "tele", "fov": [26.027658, 14.469606], "hight": 79.587, "latitude": 23.469303, "longitude": 113.398506, "pitch": -35.42, "resolution": [1280, 720], "roll": 0.0, "yaw": 96.89}, "camera_id": 0, "global_pos": {"altitude": 136.98585510253906, "latitude": 23.46930363073842, "longitude": 113.39850946367889}, "objs": [{"bbox": {"h": 0.0516, "w": 0.014, "x": 0.5281, "y": 0.697}, "cls_id": 30, "pic": "None", "pos": {"altitude": 57.39000701904297, "latitude": 23.469195607015088, "longitude": 113.39935578842986}, "timestamp": 3754993, "track_id": 1}, {"bbox": {"h": 0.0529, "w": 0.0125, "x": 0.6179, "y": 0.5095}, "cls_id": 30, "pic": "None", "pos": {"altitude": 57.39000701904297, "latitude": 23.46914378495831, "longitude": 113.39945517088813}, "timestamp": 3754993, "track_id": 2}, {"bbox": {"h": 0.0529, "w": 0.0109, "x": 0.3312, "y": 0.5828}, "cls_id": 30, "pic": "None", "pos": {"altitude": 57.39000701904297, "latitude": 23.46927191025123, "longitude": 113.39942818784442}, "timestamp": 3754993, "track_id": 3}, {"bbox": {"h": 0.0516, "w": 0.0117, "x": 0.4617, "y": 0.4252}, "cls_id": 30, "pic": "None", "pos": {"altitude": 57.39000701904297, "latitude": 23.46920689943318, "longitude": 113.39951834771139}, "timestamp": 3754993, "track_id": 4}], "push_count": 306, "time": 1703578458898, "uav_id": "TH7923461373"}
{"obj_cnt": 4, "camera": {"focal_type": "tele", "fov": [26.027658, 14.469606], "hight": 79.589, "latitude": 23.469303, "longitude": 113.398506, "pitch": -35.42, "resolution": [1280, 720], "roll": 0.0, "yaw": 96.89}, "camera_id": 0, "global_pos": {"altitude": 136.98585510253906, "latitude": 23.46930363073842, "longitude": 113.39850946367889}, "objs": [{"bbox": {"h": 0.0516, "w": 0.014, "x": 0.5289, "y": 0.697}, "cls_id": 30, "pic": "None", "pos": {"altitude": 57.38800811767578, "latitude": 23.469195283162822, "longitude": 113.39935576740424}, "timestamp": 3755130, "track_id": 1}, {"bbox": {"h": 0.0529, "w": 0.0125, "x": 0.6179, "y": 0.5095}, "cls_id": 30, "pic": "None", "pos": {"altitude": 57.38800811767578, "latitude": 23.469143780939312, "longitude": 113.39945519466211}, "timestamp": 3755130, "track_id": 2}, {"bbox": {"h": 0.0529, "w": 0.0109, "x": 0.3312, "y": 0.5828}, "cls_id": 30, "pic": "None", "pos": {"altitude": 57.38800811767578, "latitude": 23.46927190945022, "longitude": 113.39942821094071}, "timestamp": 3755130, "track_id": 3}, {"bbox": {"h": 0.0502, "w": 0.0117, "x": 0.4625, "y": 0.4252}, "cls_id": 30, "pic": "None", "pos": {"altitude": 57.38800811767578, "latitude": 23.46920648569115, "longitude": 113.39951879038301}, "timestamp": 3755130, "track_id": 4}], "push_count": 307, "time": 1703578459035, "uav_id": "TH7923461373"}
{"obj_cnt": 4, "camera": {"focal_type": "tele", "fov": [26.027658, 14.469606], "hight": 79.589, "latitude": 23.469303, "longitude": 113.398506, "pitch": -35.42, "resolution": [1280, 720], "roll": 0.0, "yaw": 96.89}, "camera_id": 0, "global_pos": {"altitude": 136.98585510253906, "latitude": 23.46930363073842, "longitude": 113.39850946367889}, "objs": [{"bbox": {"h": 0.0516, "w": 0.014, "x": 0.5289, "y": 0.697}, "cls_id": 30, "pic": "None", "pos": {"altitude": 57.38800811767578, "latitude": 23.469195283162822, "longitude": 113.39935576740424}, "timestamp": 3755180, "track_id": 1}, {"bbox": {"h": 0.0529, "w": 0.0125, "x": 0.6179, "y": 0.5095}, "cls_id": 30, "pic": "None", "pos": {"altitude": 57.38800811767578, "latitude": 23.469143780939312, "longitude": 113.39945519466211}, "timestamp": 3755180, "track_id": 2}, {"bbox": {"h": 0.0529, "w": 0.0109, "x": 0.332, "y": 0.5828}, "cls_id": 30, "pic": "None", "pos": {"altitude": 57.38800811767578, "latitude": 23.469271571401016, "longitude": 113.39942816640884}, "timestamp": 3755180, "track_id": 3}, {"bbox": {"h": 0.0502, "w": 0.0109, "x": 0.4625, "y": 0.4252}, "cls_id": 30, "pic": "None", "pos": {"altitude": 57.38800811767578, "latitude": 23.469206668184246, "longitude": 113.39951881442329}, "timestamp": 3755180, "track_id": 4}], "push_count": 308, "time": 1703578459085, "uav_id": "TH7923461373"}
{"obj_cnt": 4, "camera": {"focal_type": "tele", "fov": [26.027658, 14.469606], "hight": 79.589, "latitude": 23.469303, "longitude": 113.398506, "pitch": -35.42, "resolution": [1280, 720], "roll": 0.0, "yaw": 96.89}, "camera_id": 0, "global_pos": {"altitude": 136.98585510253906, "latitude": 23.46930363073842, "longitude": 113.39850946367889}, "objs": [{"bbox": {"h": 0.0516, "w": 0.014, "x": 0.5289, "y": 0.697}, "cls_id": 30, "pic": "None", "pos": {"altitude": 57.38800811767578, "latitude": 23.469195283162822, "longitude": 113.39935576740424}, "timestamp": 3755234, "track_id": 1}, {"bbox": {"h": 0.0529, "w": 0.0125, "x": 0.6179, "y": 0.5095}, "cls_id": 30, "pic": "None", "pos": {"altitude": 57.38800811767578, "latitude": 23.469143780939312, "longitude": 113.39945519466211}, "timestamp": 3755234, "track_id": 2}, {"bbox": {"h": 0.0529, "w": 0.0109, "x": 0.332, "y": 0.5828}, "cls_id": 30, "pic": "None", "pos": {"altitude": 57.38800811767578, "latitude": 23.469271571401016, "longitude": 113.39942816640884}, "timestamp": 3755234, "track_id": 3}, {"bbox": {"h": 0.0502, "w": 0.0109, "x": 0.4625, "y": 0.4252}, "cls_id": 30, "pic": "None", "pos": {"altitude": 57.38800811767578, "latitude": 23.469206668184246, "longitude": 113.39951881442329}, "timestamp": 3755234, "track_id": 4}], "push_count": 309, "time": 1703578459139, "uav_id": "TH7923461373"}
{"obj_cnt": 4, "camera": {"focal_type": "tele", "fov": [26.027658, 14.469606], "hight": 79.58, "latitude": 23.469303, "longitude": 113.398506, "pitch": -35.42, "resolution": [1280, 720], "roll": 0.0, "yaw": 96.89}, "camera_id": 0, "global_pos": {"altitude": 136.98585510253906, "latitude": 23.46930363073842, "longitude": 113.39850946367889}, "objs": [{"bbox": {"h": 0.0516, "w": 0.014, "x": 0.5289, "y": 0.697}, "cls_id": 30, "pic": "None", "pos": {"altitude": 57.391998291015625, "latitude": 23.469195295427525, "longitude": 113.39935567165844}, "timestamp": 3755361, "track_id": 1}, {"bbox": {"h": 0.0529, "w": 0.0125, "x": 0.6171, "y": 0.5095}, "cls_id": 30, "pic": "None", "pos": {"altitude": 57.391998291015625, "latitude": 23.469144148955042, "longitude": 113.39945513377623}, "timestamp": 3755361, "track_id": 2}, {"bbox": {"h": 0.0529, "w": 0.0109, "x": 0.3312, "y": 0.5828}, "cls_id": 30, "pic": "None", "pos": {"altitude": 57.391998291015625, "latitude": 23.469271913054758, "longitude": 113.39942810700738}, "timestamp": 3755361, "track_id": 3}, {"bbox": {"h": 0.0489, "w": 0.0109, "x": 0.4617, "y": 0.4252}, "cls_id": 30, "pic": "None", "pos": {"altitude": 57.391998291015625, "latitude": 23.469207001141545, "longitude": 113.39951918072704}, "timestamp": 3755361, "track_id": 4}], "push_count": 310, "time": 1703578459267, "uav_id": "TH7923461373"}
{"obj_cnt": 4, "camera": {"focal_type": "tele", "fov": [26.027658, 14.469606], "hight": 79.58, "latitude": 23.469303, "longitude": 113.398506, "pitch": -35.42, "resolution": [1280, 720], "roll": 0.0, "yaw": 96.89}, "camera_id": 0, "global_pos": {"altitude": 136.98585510253906, "latitude": 23.46930363073842, "longitude": 113.39850946367889}, "objs": [{"bbox": {"h": 0.0516, "w": 0.014, "x": 0.5296, "y": 0.697}, "cls_id": 30, "pic": "None", "pos": {"altitude": 57.391998291015625, "latitude": 23.469195014472273, "longitude": 113.39935563464783}, "timestamp": 3755401, "track_id": 1}, {"bbox": {"h": 0.0529, "w": 0.0125, "x": 0.6171, "y": 0.5095}, "cls_id": 30, "pic": "None", "pos": {"altitude": 57.391998291015625, "latitude": 23.469144148955042, "longitude": 113.39945513377623}, "timestamp": 3755401, "track_id": 2}, {"bbox": {"h": 0.0529, "w": 0.0109, "x": 0.3312, "y": 0.5828}, "cls_id": 30, "pic": "None", "pos": {"altitude": 57.391998291015625, "latitude": 23.469271913054758, "longitude": 113.39942810700738}, "timestamp": 3755401, "track_id": 3}, {"bbox": {"h": 0.0489, "w": 0.0109, "x": 0.4617, "y": 0.4252}, "cls_id": 30, "pic": "None", "pos": {"altitude": 57.391998291015625, "latitude": 23.469207001141545, "longitude": 113.39951918072704}, "timestamp": 3755401, "track_id": 4}], "push_count": 311, "time": 1703578459306, "uav_id": "TH7923461373"}
{"obj_cnt": 4, "camera": {"focal_type": "tele", "fov": [26.027658, 14.469606], "hight": 79.58, "latitude": 23.469303, "longitude": 113.398506, "pitch": -35.42, "resolution": [1280, 720], "roll": 0.0, "yaw": 96.89}, "camera_id": 0, "global_pos": {"altitude": 136.98585510253906, "latitude": 23.46930363073842, "longitude": 113.39850946367889}, "objs": [{"bbox": {"h": 0.0516, "w": 0.014, "x": 0.5296, "y": 0.697}, "cls_id": 30, "pic": "None", "pos": {"altitude": 57.391998291015625, "latitude": 23.469195014472273, "longitude": 113.39935563464783}, "timestamp": 3755462, "track_id": 1}, {"bbox": {"h": 0.0529, "w": 0.0125, "x": 0.6171, "y": 0.5095}, "cls_id": 30, "pic": "None", "pos": {"altitude": 57.391998291015625, "latitude": 23.469144148955042, "longitude": 113.39945513377623}, "timestamp": 3755462, "track_id": 2}, {"bbox": {"h": 0.0529, "w": 0.0109, "x": 0.3312, "y": 0.5828}, "cls_id": 30, "pic": "None", "pos": {"altitude": 57.391998291015625, "latitude": 23.469271913054758, "longitude": 113.39942810700738}, "timestamp": 3755462, "track_id": 3}, {"bbox": {"h": 0.0489, "w": 0.0109, "x": 0.4617, "y": 0.4252}, "cls_id": 30, "pic": "None", "pos": {"altitude": 57.391998291015625, "latitude": 23.469207001141545, "longitude": 113.39951918072704}, "timestamp": 3755462, "track_id": 4}], "push_count": 312, "time": 1703578459367, "uav_id": "TH7923461373"}
{"obj_cnt": 4, "camera": {"focal_type": "tele", "fov": [26.027658, 14.469606], "hight": 79.578, "latitude": 23.469303, "longitude": 113.398506, "pitch": -35.42, "resolution": [1280, 720], "roll": 0.0, "yaw": 96.89}, "camera_id": 0, "global_pos": {"altitude": 136.97218322753906, "latitude": 23.46930368896152, "longitude": 113.39850960127079}, "objs": [{"bbox": {"h": 0.0516, "w": 0.014, "x": 0.5289, "y": 0.6956}, "cls_id": 30, "pic": "None", "pos": {"altitude": 57.39399719238281, "latitude": 23.469195209437675, "longitude": 113.39935636931092}, "timestamp": 3755602, "track_id": 1}, {"bbox": {"h": 0.0529, "w": 0.0125, "x": 0.6171, "y": 0.5095}, "cls_id": 30, "pic": "None", "pos": {"altitude": 57.39399719238281, "latitude": 23.46914415296525, "longitude": 113.3994551100011}, "timestamp": 3755602, "track_id": 2}, {"bbox": {"h": 0.0529, "w": 0.0109, "x": 0.3312, "y": 0.5828}, "cls_id": 30, "pic": "None", "pos": {"altitude": 57.39399719238281, "latitude": 23.469271913855767, "longitude": 113.39942808391109}, "timestamp": 3755602, "track_id": 3}, {"bbox": {"h": 0.0489, "w": 0.0109, "x": 0.4609, "y": 0.4252}, "cls_id": 30, "pic": "None", "pos": {"altitude": 57.39399719238281, "latitude": 23.469207368620513, "longitude": 113.39951920343182}, "timestamp": 3755602, "track_id": 4}], "push_count": 313, "time": 1703578459507, "uav_id": "TH7923461373"}
{"obj_cnt": 4, "camera": {"focal_type": "tele", "fov": [26.027658, 14.469606], "hight": 79.578, "latitude": 23.469303, "longitude": 113.398506, "pitch": -35.42, "resolution": [1280, 720], "roll": 0.0, "yaw": 96.89}, "camera_id": 0, "global_pos": {"altitude": 136.97218322753906, "latitude": 23.46930368896152, "longitude": 113.39850960127079}, "objs": [{"bbox": {"h": 0.0516, "w": 0.014, "x": 0.5289, "y": 0.6956}, "cls_id": 30, "pic": "None", "pos": {"altitude": 57.39399719238281, "latitude": 23.469195209437675, "longitude": 113.39935636931092}, "timestamp": 3755671, "track_id": 1}, {"bbox": {"h": 0.0529, "w": 0.0125, "x": 0.6179, "y": 0.5095}, "cls_id": 30, "pic": "None", "pos": {"altitude": 57.39399719238281, "latitude": 23.469143803043806, "longitude": 113.39945506390524}, "timestamp": 3755671, "track_id": 2}, {"bbox": {"h": 0.0529, "w": 0.0109, "x": 0.3312, "y": 0.5828}, "cls_id": 30, "pic": "None", "pos": {"altitude": 57.39399719238281, "latitude": 23.469271913855767, "longitude": 113.39942808391109}, "timestamp": 3755671, "track_id": 3}, {"bbox": {"h": 0.0489, "w": 0.0109, "x": 0.4609, "y": 0.4252}, "cls_id": 30, "pic": "None", "pos": {"altitude": 57.39399719238281, "latitude": 23.469207368620513, "longitude": 113.39951920343182}, "timestamp": 3755671, "track_id": 4}], "push_count": 314, "time": 1703578459576, "uav_id": "TH7923461373"}
{"obj_cnt": 4, "camera": {"focal_type": "tele", "fov": [26.027658, 14.469606], "hight": 79.579, "latitude": 23.469303, "longitude": 113.398506, "pitch": -35.42, "resolution": [1280, 720], "roll": 0.0, "yaw": 96.89}, "camera_id": 0, "global_pos": {"altitude": 136.97218322753906, "latitude": 23.46930368896152, "longitude": 113.39850960127079}, "objs": [{"bbox": {"h": 0.0516, "w": 0.014, "x": 0.5289, "y": 0.697}, "cls_id": 30, "pic": "None", "pos": {"altitude": 57.39299774169922, "latitude": 23.469195296790275, "longitude": 113.39935566102002}, "timestamp": 3755722, "track_id": 1}, {"bbox": {"h": 0.0529, "w": 0.0125, "x": 0.6179, "y": 0.5095}, "cls_id": 30, "pic": "None", "pos": {"altitude": 57.39299774169922, "latitude": 23.4691438010343, "longitude": 113.3994550757922}, "timestamp": 3755722, "track_id": 2}, {"bbox": {"h": 0.0529, "w": 0.0109, "x": 0.3312, "y": 0.5842}, "cls_id": 30, "pic": "None", "pos": {"altitude": 57.39299774169922, "latitude": 23.46927195696889, "longitude": 113.39942729253895}, "timestamp": 3755722, "track_id": 3}, {"bbox": {"h": 0.0489, "w": 0.0109, "x": 0.4609, "y": 0.4252}, "cls_id": 30, "pic": "None", "pos": {"altitude": 57.39299774169922, "latitude": 23.469207367409346, "longitude": 113.39951921612436}, "timestamp": 3755722, "track_id": 4}], "push_count": 315, "time": 1703578459627, "uav_id": "TH7923461373"}
{"obj_cnt": 4, "camera": {"focal_type": "tele", "fov": [26.027658, 14.469606], "hight": 79.579, "latitude": 23.469303, "longitude": 113.398506, "pitch": -35.42, "resolution": [1280, 720], "roll": 0.0, "yaw": 96.89}, "camera_id": 0, "global_pos": {"altitude": 136.97218322753906, "latitude": 23.46930368896152, "longitude": 113.39850960127079}, "objs": [{"bbox": {"h": 0.0516, "w": 0.014, "x": 0.5281, "y": 0.697}, "cls_id": 30, "pic": "None", "pos": {"altitude": 57.39299774169922, "latitude": 23.469195617884786, "longitude": 113.39935570331824}, "timestamp": 3755803, "track_id": 1}, {"bbox": {"h": 0.0529, "w": 0.0125, "x": 0.6179, "y": 0.5095}, "cls_id": 30, "pic": "None", "pos": {"altitude": 57.39299774169922, "latitude": 23.4691438010343, "longitude": 113.3994550757922}, "timestamp": 3755803, "track_id": 2}, {"bbox": {"h": 0.0516, "w": 0.0101, "x": 0.332, "y": 0.5842}, "cls_id": 30, "pic": "None", "pos": {"altitude": 57.39299774169922, "latitude": 23.46927176783293, "longitude": 113.39942764292434}, "timestamp": 3755803, "track_id": 3}, {"bbox": {"h": 0.0489, "w": 0.0109, "x": 0.4609, "y": 0.4252}, "cls_id": 30, "pic": "None", "pos": {"altitude": 57.39299774169922, "latitude": 23.469207367409346, "longitude": 113.39951921612436}, "timestamp": 3755803, "track_id": 4}], "push_count": 316, "time": 1703578459708, "uav_id": "TH7923461373"}
{"obj_cnt": 4, "camera": {"focal_type": "tele", "fov": [26.027658, 14.469606], "hight": 79.579, "latitude": 23.469303, "longitude": 113.398506, "pitch": -35.42, "resolution": [1280, 720], "roll": 0.0, "yaw": 96.89}, "camera_id": 0, "global_pos": {"altitude": 136.97218322753906, "latitude": 23.46930368896152, "longitude": 113.39850960127079}, "objs": [{"bbox": {"h": 0.0516, "w": 0.014, "x": 0.5281, "y": 0.697}, "cls_id": 30, "pic": "None", "pos": {"altitude": 57.39299774169922, "latitude": 23.469195617884786, "longitude": 113.39935570331824}, "timestamp": 3755852, "track_id": 1}, {"bbox": {"h": 0.0529, "w": 0.0125, "x": 0.6179, "y": 0.5095}, "cls_id": 30, "pic": "None", "pos": {"altitude": 57.39299774169922, "latitude": 23.4691438010343, "longitude": 113.3994550757922}, "timestamp": 3755852, "track_id": 2}, {"bbox": {"h": 0.0516, "w": 0.0101, "x": 0.332, "y": 0.5842}, "cls_id": 30, "pic": "None", "pos": {"altitude": 57.39299774169922, "latitude": 23.46927176783293, "longitude": 113.39942764292434}, "timestamp": 3755852, "track_id": 3}, {"bbox": {"h": 0.0489, "w": 0.0109, "x": 0.4609, "y": 0.4252}, "cls_id": 30, "pic": "None", "pos": {"altitude": 57.39299774169922, "latitude": 23.469207367409346, "longitude": 113.39951921612436}, "timestamp": 3755852, "track_id": 4}], "push_count": 317, "time": 1703578459757, "uav_id": "TH7923461373"}
{"obj_cnt": 4, "camera": {"focal_type": "tele", "fov": [26.027658, 14.469606], "hight": 79.573, "latitude": 23.469303, "longitude": 113.398506, "pitch": -35.42, "resolution": [1280, 720], "roll": 0.0, "yaw": 96.89}, "camera_id": 0, "global_pos": {"altitude": 136.97218322753906, "latitude": 23.46930368896152, "longitude": 113.39850960127079}, "objs": [{"bbox": {"h": 0.0516, "w": 0.014, "x": 0.5281, "y": 0.697}, "cls_id": 30, "pic": "None", "pos": {"altitude": 57.391998291015625, "latitude": 23.469195626047433, "longitude": 113.3993556394033}, "timestamp": 3755923, "track_id": 1}, {"bbox": {"h": 0.0529, "w": 0.0125, "x": 0.6179, "y": 0.5095}, "cls_id": 30, "pic": "None", "pos": {"altitude": 57.391998291015625, "latitude": 23.46914381310664, "longitude": 113.39945500437955}, "timestamp": 3755923, "track_id": 2}, {"bbox": {"h": 0.0502, "w": 0.0101, "x": 0.332, "y": 0.5842}, "cls_id": 30, "pic": "None", "pos": {"altitude": 57.391998291015625, "latitude": 23.46927174843469, "longitude": 113.39942797510086}, "timestamp": 3755923, "track_id": 3}, {"bbox": {"h": 0.0489, "w": 0.0109, "x": 0.4609, "y": 0.4252}, "cls_id": 30, "pic": "None", "pos": {"altitude": 57.391998291015625, "latitude": 23.469207374685553, "longitude": 113.39951913987218}, "timestamp": 3755923, "track_id": 4}], "push_count": 318, "time": 1703578459828, "uav_id": "TH7923461373"}
{"obj_cnt": 4, "camera": {"focal_type": "tele", "fov": [26.027658, 14.469606], "hight": 79.573, "latitude": 23.469303, "longitude": 113.398506, "pitch": -35.42, "resolution": [1280, 720], "roll": 0.0, "yaw": 96.89}, "camera_id": 0, "global_pos": {"altitude": 136.97218322753906, "latitude": 23.46930368896152, "longitude": 113.39850960127079}, "objs": [{"bbox": {"h": 0.0516, "w": 0.014, "x": 0.5281, "y": 0.697}, "cls_id": 30, "pic": "None", "pos": {"altitude": 57.391998291015625, "latitude": 23.469195626047433, "longitude": 113.3993556394033}, "timestamp": 3756024, "track_id": 1}, {"bbox": {"h": 0.0529, "w": 0.0125, "x": 0.6179, "y": 0.5095}, "cls_id": 30, "pic": "None", "pos": {"altitude": 57.391998291015625, "latitude": 23.46914381310664, "longitude": 113.39945500437955}, "timestamp": 3756024, "track_id": 2}, {"bbox": {"h": 0.0516, "w": 0.0109, "x": 0.3312, "y": 0.5842}, "cls_id": 30, "pic": "None", "pos": {"altitude": 57.391998291015625, "latitude": 23.469271939178267, "longitude": 113.39942759583468}, "timestamp": 3756024, "track_id": 3}, {"bbox": {"h": 0.0489, "w": 0.0109, "x": 0.4609, "y": 0.4252}, "cls_id": 30, "pic": "None", "pos": {"altitude": 57.391998291015625, "latitude": 23.469207374685553, "longitude": 113.39951913987218}, "timestamp": 3756024, "track_id": 4}], "push_count": 319, "time": 1703578459929, "uav_id": "TH7923461373"}
{"obj_cnt": 4, "camera": {"focal_type": "tele", "fov": [26.027658, 14.469606], "hight": 79.577, "latitude": 23.469303, "longitude": 113.398506, "pitch": -35.42, "resolution": [1280, 720], "roll": 0.0, "yaw": 96.89}, "camera_id": 0, "global_pos": {"altitude": 136.97218322753906, "latitude": 23.46930368896152, "longitude": 113.39850960127079}, "objs": [{"bbox": {"h": 0.0516, "w": 0.014, "x": 0.5281, "y": 0.697}, "cls_id": 30, "pic": "None", "pos": {"altitude": 57.38799285888672, "latitude": 23.469195620602214, "longitude": 113.39935568204032}, "timestamp": 3756691, "track_id": 1}, {"bbox": {"h": 0.0529, "w": 0.0125, "x": 0.6171, "y": 0.5095}, "cls_id": 30, "pic": "None", "pos": {"altitude": 57.38799285888672, "latitude": 23.469144154970362, "longitude": 113.39945509811355}, "timestamp": 3756691, "track_id": 2}, {"bbox": {"h": 0.0516, "w": 0.0109, "x": 0.3304, "y": 0.5842}, "cls_id": 30, "pic": "None", "pos": {"altitude": 57.38799285888672, "latitude": 23.469272275467578, "longitude": 113.39942768660512}, "timestamp": 3756691, "track_id": 3}, {"bbox": {"h": 0.0489, "w": 0.0109, "x": 0.4617, "y": 0.4252}, "cls_id": 30, "pic": "None", "pos": {"altitude": 57.38799285888672, "latitude": 23.469207004788778, "longitude": 113.39951914265122}, "timestamp": 3756691, "track_id": 4}], "push_count": 320, "time": 1703578460597, "uav_id": "TH7923461373"}
{"obj_cnt": 4, "camera": {"focal_type": "tele", "fov": [26.027658, 14.469606], "hight": 79.577, "latitude": 23.469303, "longitude": 113.398506, "pitch": -35.42, "resolution": [1280, 720], "roll": 0.0, "yaw": 96.89}, "camera_id": 0, "global_pos": {"altitude": 136.97218322753906, "latitude": 23.46930368896152, "longitude": 113.39850960127079}, "objs": [{"bbox": {"h": 0.0516, "w": 0.014, "x": 0.5281, "y": 0.697}, "cls_id": 30, "pic": "None", "pos": {"altitude": 57.38799285888672, "latitude": 23.469195620602214, "longitude": 113.39935568204032}, "timestamp": 3756705, "track_id": 1}, {"bbox": {"h": 0.0529, "w": 0.0132, "x": 0.6171, "y": 0.5095}, "cls_id": 30, "pic": "None", "pos": {"altitude": 57.38799285888672, "latitude": 23.469144001884295, "longitude": 113.3994550779472}, "timestamp": 3756705, "track_id": 2}, {"bbox": {"h": 0.0529, "w": 0.0109, "x": 0.3304, "y": 0.5842}, "cls_id": 30, "pic": "None", "pos": {"altitude": 57.38799285888672, "latitude": 23.46927229556013, "longitude": 113.39942731396073}, "timestamp": 3756705, "track_id": 3}, {"bbox": {"h": 0.0489, "w": 0.0109, "x": 0.4617, "y": 0.4252}, "cls_id": 30, "pic": "None", "pos": {"altitude": 57.38799285888672, "latitude": 23.469207004788778, "longitude": 113.39951914265122}, "timestamp": 3756705, "track_id": 4}], "push_count": 321, "time": 1703578460610, "uav_id": "TH7923461373"}
{"obj_cnt": 4, "camera": {"focal_type": "tele", "fov": [26.027658, 14.469606], "hight": 79.577, "latitude": 23.469303, "longitude": 113.398506, "pitch": -35.42, "resolution": [1280, 720], "roll": 0.0, "yaw": 96.89}, "camera_id": 0, "global_pos": {"altitude": 136.97218322753906, "latitude": 23.46930368896152, "longitude": 113.39850960127079}, "objs": [{"bbox": {"h": 0.0516, "w": 0.014, "x": 0.5281, "y": 0.697}, "cls_id": 30, "pic": "None", "pos": {"altitude": 57.391990661621094, "latitude": 23.469195620602214, "longitude": 113.39935568204032}, "timestamp": 3756730, "track_id": 1}, {"bbox": {"h": 0.0529, "w": 0.0132, "x": 0.6171, "y": 0.5095}, "cls_id": 30, "pic": "None", "pos": {"altitude": 57.391990661621094, "latitude": 23.469144001884295, "longitude": 113.3994550779472}, "timestamp": 3756730, "track_id": 2}, {"bbox": {"h": 0.0529, "w": 0.0109, "x": 0.3304, "y": 0.5842}, "cls_id": 30, "pic": "None", "pos": {"altitude": 57.391990661621094, "latitude": 23.46927229556013, "longitude": 113.39942731396073}, "timestamp": 3756730, "track_id": 3}, {"bbox": {"h": 0.0489, "w": 0.0109, "x": 0.4617, "y": 0.4252}, "cls_id": 30, "pic": "None", "pos": {"altitude": 57.391990661621094, "latitude": 23.469207004788778, "longitude": 113.39951914265122}, "timestamp": 3756730, "track_id": 4}], "push_count": 322, "time": 1703578460634, "uav_id": "TH7923461373"}
{"obj_cnt": 4, "camera": {"focal_type": "tele", "fov": [26.027658, 14.469606], "hight": 79.577, "latitude": 23.469303, "longitude": 113.398506, "pitch": -35.42, "resolution": [1280, 720], "roll": 0.0, "yaw": 96.89}, "camera_id": 0, "global_pos": {"altitude": 136.97218322753906, "latitude": 23.46930368896152, "longitude": 113.39850960127079}, "objs": [{"bbox": {"h": 0.0516, "w": 0.014, "x": 0.5281, "y": 0.697}, "cls_id": 30, "pic": "None", "pos": {"altitude": 57.391990661621094, "latitude": 23.469195620602214, "longitude": 113.39935568204032}, "timestamp": 3756739, "track_id": 1}, {"bbox": {"h": 0.0529, "w": 0.0125, "x": 0.6179, "y": 0.5108}, "cls_id": 30, "pic": "None", "pos": {"altitude": 57.391990661621094, "latitude": 23.46914392686035, "longitude": 113.39945426338711}, "timestamp": 3756739, "track_id": 2}, {"bbox": {"h": 0.0516, "w": 0.0109, "x": 0.3304, "y": 0.5842}, "cls_id": 30, "pic": "None", "pos": {"altitude": 57.391990661621094, "latitude": 23.469272275467578, "longitude": 113.39942768660512}, "timestamp": 3756739, "track_id": 3}, {"bbox": {"h": 0.0489, "w": 0.0109, "x": 0.4609, "y": 0.4252}, "cls_id": 30, "pic": "None", "pos": {"altitude": 57.391990661621094, "latitude": 23.469207369831665, "longitude": 113.39951919073926}, "timestamp": 3756739, "track_id": 4}], "push_count": 323, "time": 1703578460644, "uav_id": "TH7923461373"}
{"obj_cnt": 4, "camera": {"focal_type": "tele", "fov": [26.027658, 14.469606], "hight": 79.577, "latitude": 23.469303, "longitude": 113.398506, "pitch": -35.42, "resolution": [1280, 720], "roll": 0.0, "yaw": 96.89}, "camera_id": 0, "global_pos": {"altitude": 136.97218322753906, "latitude": 23.46930368896152, "longitude": 113.39850960127079}, "objs": [{"bbox": {"h": 0.0516, "w": 0.014, "x": 0.5289, "y": 0.697}, "cls_id": 30, "pic": "None", "pos": {"altitude": 57.391990661621094, "latitude": 23.469195299515757, "longitude": 113.39935563974316}, "timestamp": 3756786, "track_id": 1}, {"bbox": {"h": 0.0529, "w": 0.0132, "x": 0.6179, "y": 0.5081}, "cls_id": 30, "pic": "None", "pos": {"altitude": 57.391990661621094, "latitude": 23.469143520509718, "longitude": 113.39945588228342}, "timestamp": 3756786, "track_id": 2}, {"bbox": {"h": 0.0529, "w": 0.0109, "x": 0.3304, "y": 0.5842}, "cls_id": 30, "pic": "None", "pos": {"altitude": 57.391990661621094, "latitude": 23.46927229556013, "longitude": 113.39942731396073}, "timestamp": 3756786, "track_id": 3}, {"bbox": {"h": 0.0489, "w": 0.0109, "x": 0.4609, "y": 0.4252}, "cls_id": 30, "pic": "None", "pos": {"altitude": 57.391990661621094, "latitude": 23.469207369831665, "longitude": 113.39951919073926}, "timestamp": 3756786, "track_id": 4}], "push_count": 324, "time": 1703578460692, "uav_id": "TH7923461373"}
{"obj_cnt": 4, "camera": {"focal_type": "tele", "fov": [26.027658, 14.469606], "hight": 79.58, "latitude": 23.469303, "longitude": 113.398506, "pitch": -35.42, "resolution": [1280, 720], "roll": 0.0, "yaw": 96.89}, "camera_id": 0, "global_pos": {"altitude": 136.97218322753906, "latitude": 23.46930368896152, "longitude": 113.39850960127079}, "objs": [{"bbox": {"h": 0.0516, "w": 0.014, "x": 0.5289, "y": 0.697}, "cls_id": 30, "pic": "None", "pos": {"altitude": 57.38899230957031, "latitude": 23.469195295427525, "longitude": 113.39935567165844}, "timestamp": 3756821, "track_id": 1}, {"bbox": {"h": 0.0529, "w": 0.0132, "x": 0.6179, "y": 0.5095}, "cls_id": 30, "pic": "None", "pos": {"altitude": 57.38899230957031, "latitude": 23.46914364593297, "longitude": 113.39945506751211}, "timestamp": 3756821, "track_id": 2}, {"bbox": {"h": 0.0529, "w": 0.0109, "x": 0.3304, "y": 0.5842}, "cls_id": 30, "pic": "None", "pos": {"altitude": 57.38899230957031, "latitude": 23.469272294372985, "longitude": 113.3994273485766}, "timestamp": 3756821, "track_id": 3}, {"bbox": {"h": 0.0489, "w": 0.0109, "x": 0.4609, "y": 0.4252}, "cls_id": 30, "pic": "None", "pos": {"altitude": 57.38899230957031, "latitude": 23.469207366198187, "longitude": 113.39951922881691}, "timestamp": 3756821, "track_id": 4}], "push_count": 325, "time": 1703578460727, "uav_id": "TH7923461373"}
{"obj_cnt": 4, "camera": {"focal_type": "tele", "fov": [26.027658, 14.469606], "hight": 79.58, "latitude": 23.469303, "longitude": 113.398506, "pitch": -35.42, "resolution": [1280, 720], "roll": 0.0, "yaw": 96.89}, "camera_id": 0, "global_pos": {"altitude": 136.96365356445312, "latitude": 23.469303658812876, "longitude": 113.39850952270758}, "objs": [{"bbox": {"h": 0.0516, "w": 0.014, "x": 0.5289, "y": 0.697}, "cls_id": 30, "pic": "None", "pos": {"altitude": 57.38899230957031, "latitude": 23.469195295427525, "longitude": 113.39935567165844}, "timestamp": 3756840, "track_id": 1}, {"bbox": {"h": 0.0529, "w": 0.0132, "x": 0.6179, "y": 0.5081}, "cls_id": 30, "pic": "None", "pos": {"altitude": 57.38899230957031, "latitude": 23.469143514470506, "longitude": 113.39945591797566}, "timestamp": 3756840, "track_id": 2}, {"bbox": {"h": 0.0516, "w": 0.0101, "x": 0.3312, "y": 0.5842}, "cls_id": 30, "pic": "None", "pos": {"altitude": 57.38899230957031, "latitude": 23.469272105323952, "longitude": 113.39942769897816}, "timestamp": 3756840, "track_id": 3}, {"bbox": {"h": 0.0489, "w": 0.0109, "x": 0.4617, "y": 0.4252}, "cls_id": 30, "pic": "None", "pos": {"altitude": 57.38899230957031, "latitude": 23.469207001141545, "longitude": 113.39951918072704}, "timestamp": 3756840, "track_id": 4}], "push_count": 326, "time": 1703578460745, "uav_id": "TH7923461373"}
{"obj_cnt": 4, "camera": {"focal_type": "tele", "fov": [26.027658, 14.469606], "hight": 79.58, "latitude": 23.469303, "longitude": 113.398506, "pitch": -35.42, "resolution": [1280, 720], "roll": 0.0, "yaw": 96.89}, "camera_id": 0, "global_pos": {"altitude": 136.96365356445312, "latitude": 23.469303658812876, "longitude": 113.39850952270758}, "objs": [{"bbox": {"h": 0.0516, "w": 0.014, "x": 0.5281, "y": 0.697}, "cls_id": 30, "pic": "None", "pos": {"altitude": 57.38899230957031, "latitude": 23.469195616526072, "longitude": 113.39935571395716}, "timestamp": 3756861, "track_id": 1}, {"bbox": {"h": 0.0529, "w": 0.0132, "x": 0.6171, "y": 0.5081}, "cls_id": 30, "pic": "None", "pos": {"altitude": 57.38899230957031, "latitude": 23.469143864636333, "longitude": 113.39945596410374}, "timestamp": 3756861, "track_id": 2}, {"bbox": {"h": 0.0516, "w": 0.0101, "x": 0.3312, "y": 0.5842}, "cls_id": 30, "pic": "None", "pos": {"altitude": 57.38899230957031, "latitude": 23.469272105323952, "longitude": 113.39942769897816}, "timestamp": 3756861, "track_id": 3}, {"bbox": {"h": 0.0489, "w": 0.0109, "x": 0.4617, "y": 0.4239}, "cls_id": 30, "pic": "None", "pos": {"altitude": 57.38899230957031, "latitude": 23.46920691511474, "longitude": 113.39952004636001}, "timestamp": 3756861, "track_id": 4}], "push_count": 327, "time": 1703578460766, "uav_id": "TH7923461373"}
{"obj_cnt": 4, "camera": {"focal_type": "tele", "fov": [26.027658, 14.469606], "hight": 79.578, "latitude": 23.469303, "longitude": 113.398506, "pitch": -35.42, "resolution": [1280, 720], "roll": 0.0, "yaw": 96.89}, "camera_id": 0, "global_pos": {"altitude": 136.96365356445312, "latitude": 23.469303658812876, "longitude": 113.39850952270758}, "objs": [{"bbox": {"h": 0.0529, "w": 0.014, "x": 0.5289, "y": 0.697}, "cls_id": 30, "pic": "None", "pos": {"altitude": 57.3909912109375, "latitude": 23.46919533930347, "longitude": 113.39935531690747}, "timestamp": 3756879, "track_id": 1}, {"bbox": {"h": 0.0529, "w": 0.0132, "x": 0.6179, "y": 0.5081}, "cls_id": 30, "pic": "None", "pos": {"altitude": 57.3909912109375, "latitude": 23.469143518496647, "longitude": 113.39945589418083}, "timestamp": 3756879, "track_id": 2}, {"bbox": {"h": 0.0529, "w": 0.0109, "x": 0.3304, "y": 0.5842}, "cls_id": 30, "pic": "None", "pos": {"altitude": 57.3909912109375, "latitude": 23.469272295164416, "longitude": 113.39942732549935}, "timestamp": 3756879, "track_id": 3}, {"bbox": {"h": 0.0489, "w": 0.0109, "x": 0.4609, "y": 0.4252}, "cls_id": 30, "pic": "None", "pos": {"altitude": 57.3909912109375, "latitude": 23.469207368620513, "longitude": 113.39951920343182}, "timestamp": 3756879, "track_id": 4}], "push_count": 328, "time": 1703578460784, "uav_id": "TH7923461373"}
{"obj_cnt": 4, "camera": {"focal_type": "tele", "fov": [26.027658, 14.469606], "hight": 79.578, "latitude": 23.469303, "longitude": 113.398506, "pitch": -35.42, "resolution": [1280, 720], "roll": 0.0, "yaw": 96.89}, "camera_id": 0, "global_pos": {"altitude": 136.96365356445312, "latitude": 23.469303658812876, "longitude": 113.39850952270758}, "objs": [{"bbox": {"h": 0.0516, "w": 0.014, "x": 0.5281, "y": 0.697}, "cls_id": 30, "pic": "None", "pos": {"altitude": 57.3909912109375, "latitude": 23.469195619243504, "longitude": 113.39935569267928}, "timestamp": 3756892, "track_id": 1}, {"bbox": {"h": 0.0529, "w": 0.0132, "x": 0.6171, "y": 0.5081}, "cls_id": 30, "pic": "None", "pos": {"altitude": 57.3909912109375, "latitude": 23.46914386865368, "longitude": 113.39945594030775}, "timestamp": 3756892, "track_id": 2}, {"bbox": {"h": 0.0516, "w": 0.0101, "x": 0.3312, "y": 0.5842}, "cls_id": 30, "pic": "None", "pos": {"altitude": 57.3909912109375, "latitude": 23.46927210612013, "longitude": 113.39942767589211}, "timestamp": 3756892, "track_id": 3}, {"bbox": {"h": 0.0489, "w": 0.0109, "x": 0.4617, "y": 0.4252}, "cls_id": 30, "pic": "None", "pos": {"altitude": 57.3909912109375, "latitude": 23.469207003573036, "longitude": 113.39951915534316}, "timestamp": 3756892, "track_id": 4}], "push_count": 329, "time": 1703578460798, "uav_id": "TH7923461373"}
{"obj_cnt": 4, "camera": {"focal_type": "tele", "fov": [26.027658, 14.469606], "hight": 79.578, "latitude": 23.469303, "longitude": 113.398506, "pitch": -35.42, "resolution": [1280, 720], "roll": 0.0, "yaw": 96.89}, "camera_id": 0, "global_pos": {"altitude": 136.96365356445312, "latitude": 23.469303658812876, "longitude": 113.39850952270758}, "objs": [{"bbox": {"h": 0.0516, "w": 0.014, "x": 0.5289, "y": 0.697}, "cls_id": 30, "pic": "None", "pos": {"altitude": 57.3909912109375, "latitude": 23.46919529815301, "longitude": 113.3993556503816}, "timestamp": 3756926, "track_id": 1}, {"bbox": {"h": 0.0529, "w": 0.0132, "x": 0.6171, "y": 0.5081}, "cls_id": 30, "pic": "None", "pos": {"altitude": 57.3909912109375, "latitude": 23.46914386865368, "longitude": 113.39945594030775}, "timestamp": 3756926, "track_id": 2}, {"bbox": {"h": 0.0502, "w": 0.0101, "x": 0.3312, "y": 0.5842}, "cls_id": 30, "pic": "None", "pos": {"altitude": 57.3909912109375, "latitude": 23.469272084413237, "longitude": 113.39942807745125}, "timestamp": 3756926, "track_id": 3}, {"bbox": {"h": 0.0502, "w": 0.0117, "x": 0.4617, "y": 0.4252}, "cls_id": 30, "pic": "None", "pos": {"altitude": 57.3909912109375, "latitude": 23.46920686407617, "longitude": 113.39951869891611}, "timestamp": 3756926, "track_id": 4}], "push_count": 330, "time": 1703578460831, "uav_id": "TH7923461373"}
{"obj_cnt": 4, "camera": {"focal_type": "tele", "fov": [26.027658, 14.469606], "hight": 79.578, "latitude": 23.469303, "longitude": 113.398506, "pitch": -35.42, "resolution": [1280, 720], "roll": 0.0, "yaw": 96.89}, "camera_id": 0, "global_pos": {"altitude": 136.96365356445312, "latitude": 23.469303658812876, "longitude": 113.39850952270758}, "objs": [{"bbox": {"h": 0.0516, "w": 0.014, "x": 0.5289, "y": 0.697}, "cls_id": 30, "pic": "None", "pos": {"altitude": 57.3909912109375, "latitude": 23.46919529815301, "longitude": 113.3993556503816}, "timestamp": 3756939, "track_id": 1}, {"bbox": {"h": 0.0529, "w": 0.0132, "x": 0.6171, "y": 0.5081}, "cls_id": 30, "pic": "None", "pos": {"altitude": 57.3909912109375, "latitude": 23.46914386865368, "longitude": 113.39945594030775}, "timestamp": 3756939, "track_id": 2}, {"bbox": {"h": 0.0502, "w": 0.0101, "x": 0.3312, "y": 0.5842}, "cls_id": 30, "pic": "None", "pos": {"altitude": 57.3909912109375, "latitude": 23.469272084413237, "longitude": 113.39942807745125}, "timestamp": 3756939, "track_id": 3}, {"bbox": {"h": 0.0502, "w": 0.0117, "x": 0.4617, "y": 0.4252}, "cls_id": 30, "pic": "None", "pos": {"altitude": 57.3909912109375, "latitude": 23.46920686407617, "longitude": 113.39951869891611}, "timestamp": 3756939, "track_id": 4}], "push_count": 331, "time": 1703578460845, "uav_id": "TH7923461373"}
{"obj_cnt": 4, "camera": {"focal_type": "tele", "fov": [26.027658, 14.469606], "hight": 79.576, "latitude": 23.469303, "longitude": 113.398506, "pitch": -35.42, "resolution": [1280, 720], "roll": 0.0, "yaw": 96.89}, "camera_id": 0, "global_pos": {"altitude": 136.96365356445312, "latitude": 23.469303658812876, "longitude": 113.39850952270758}, "objs": [{"bbox": {"h": 0.0516, "w": 0.014, "x": 0.5289, "y": 0.697}, "cls_id": 30, "pic": "None", "pos": {"altitude": 57.39099884033203, "latitude": 23.469195300888906, "longitude": 113.39935562902353}, "timestamp": 3756987, "track_id": 1}, {"bbox": {"h": 0.0529, "w": 0.0132, "x": 0.6171, "y": 0.5081}, "cls_id": 30, "pic": "None", "pos": {"altitude": 57.39099884033203, "latitude": 23.469143872686367, "longitude": 113.39945591642093}, "timestamp": 3756987, "track_id": 2}, {"bbox": {"h": 0.0502, "w": 0.0101, "x": 0.3312, "y": 0.5855}, "cls_id": 30, "pic": "None", "pos": {"altitude": 57.39099884033203, "latitude": 23.469272125512816, "longitude": 113.39942730875437}, "timestamp": 3756987, "track_id": 3}, {"bbox": {"h": 0.0502, "w": 0.0117, "x": 0.4617, "y": 0.4239}, "cls_id": 30, "pic": "None", "pos": {"altitude": 57.39099884033203, "latitude": 23.469206780435083, "longitude": 113.39951953845654}, "timestamp": 3756987, "track_id": 4}], "push_count": 332, "time": 1703578460888, "uav_id": "TH7923461373"}
{"obj_cnt": 4, "camera": {"focal_type": "tele", "fov": [26.027658, 14.469606], "hight": 79.576, "latitude": 23.469303, "longitude": 113.398506, "pitch": -35.42, "resolution": [1280, 720], "roll": 0.0, "yaw": 96.89}, "camera_id": 0, "global_pos": {"altitude": 136.96365356445312, "latitude": 23.469303658812876, "longitude": 113.39850952270758}, "objs": [{"bbox": {"h": 0.0529, "w": 0.0148, "x": 0.5289, "y": 0.697}, "cls_id": 30, "pic": "None", "pos": {"altitude": 57.39099884033203, "latitude": 23.469195181545942, "longitude": 113.39935527441594}, "timestamp": 3757042, "track_id": 1}, {"bbox": {"h": 0.0529, "w": 0.0132, "x": 0.6171, "y": 0.5081}, "cls_id": 30, "pic": "None", "pos": {"altitude": 57.39099884033203, "latitude": 23.469143872686367, "longitude": 113.39945591642093}, "timestamp": 3757042, "track_id": 2}, {"bbox": {"h": 0.0502, "w": 0.0101, "x": 0.3312, "y": 0.5855}, "cls_id": 30, "pic": "None", "pos": {"altitude": 57.39099884033203, "latitude": 23.469272125512816, "longitude": 113.39942730875437}, "timestamp": 3757042, "track_id": 3}, {"bbox": {"h": 0.0516, "w": 0.0117, "x": 0.4617, "y": 0.4252}, "cls_id": 30, "pic": "None", "pos": {"altitude": 57.39099884033203, "latitude": 23.469206912828525, "longitude": 113.39951820813054}, "timestamp": 3757042, "track_id": 4}], "push_count": 333, "time": 1703578460947, "uav_id": "TH7923461373"}
{"obj_cnt": 4, "camera": {"focal_type": "tele", "fov": [26.027658, 14.469606], "hight": 79.568, "latitude": 23.469303, "longitude": 113.398506, "pitch": -35.42, "resolution": [1280, 720], "roll": 0.0, "yaw": 96.89}, "camera_id": 0, "global_pos": {"altitude": 136.96365356445312, "latitude": 23.469303658812876, "longitude": 113.39850952270758}, "objs": [{"bbox": {"h": 0.0529, "w": 0.0148, "x": 0.5289, "y": 0.697}, "cls_id": 30, "pic": "None", "pos": {"altitude": 57.39899444580078, "latitude": 23.469195192459885, "longitude": 113.3993551893442}, "timestamp": 3757112, "track_id": 1}, {"bbox": {"h": 0.0529, "w": 0.0125, "x": 0.6171, "y": 0.5081}, "cls_id": 30, "pic": "None", "pos": {"altitude": 57.39899444580078, "latitude": 23.469144041927564, "longitude": 113.39945584141458}, "timestamp": 3757112, "track_id": 2}, {"bbox": {"h": 0.0502, "w": 0.0101, "x": 0.3312, "y": 0.5855}, "cls_id": 30, "pic": "None", "pos": {"altitude": 57.39899444580078, "latitude": 23.46927212869567, "longitude": 113.39942721644474}, "timestamp": 3757112, "track_id": 3}, {"bbox": {"h": 0.0516, "w": 0.0117, "x": 0.4617, "y": 0.4252}, "cls_id": 30, "pic": "None", "pos": {"altitude": 57.39899444580078, "latitude": 23.469206922563846, "longitude": 113.39951810668761}, "timestamp": 3757112, "track_id": 4}], "push_count": 334, "time": 1703578461017, "uav_id": "TH7923461373"}
{"obj_cnt": 4, "camera": {"focal_type": "tele", "fov": [26.027658, 14.469606], "hight": 79.568, "latitude": 23.469303, "longitude": 113.398506, "pitch": -35.42, "resolution": [1280, 720], "roll": 0.0, "yaw": 96.89}, "camera_id": 0, "global_pos": {"altitude": 136.96365356445312, "latitude": 23.469303658812876, "longitude": 113.39850952270758}, "objs": [{"bbox": {"h": 0.0543, "w": 0.0148, "x": 0.5289, "y": 0.697}, "cls_id": 30, "pic": "None", "pos": {"altitude": 57.39899444580078, "latitude": 23.469195236793276, "longitude": 113.39935483048401}, "timestamp": 3757146, "track_id": 1}, {"bbox": {"h": 0.0529, "w": 0.0125, "x": 0.6171, "y": 0.5081}, "cls_id": 30, "pic": "None", "pos": {"altitude": 57.39899444580078, "latitude": 23.469144041927564, "longitude": 113.39945584141458}, "timestamp": 3757146, "track_id": 2}, {"bbox": {"h": 0.0502, "w": 0.0101, "x": 0.3312, "y": 0.5855}, "cls_id": 30, "pic": "None", "pos": {"altitude": 57.39899444580078, "latitude": 23.46927212869567, "longitude": 113.39942721644474}, "timestamp": 3757146, "track_id": 3}, {"bbox": {"h": 0.0516, "w": 0.0117, "x": 0.4617, "y": 0.4252}, "cls_id": 30, "pic": "None", "pos": {"altitude": 57.39899444580078, "latitude": 23.469206922563846, "longitude": 113.39951810668761}, "timestamp": 3757146, "track_id": 4}], "push_count": 335, "time": 1703578461051, "uav_id": "TH7923461373"}
{"obj_cnt": 4, "camera": {"focal_type": "tele", "fov": [26.027658, 14.469606], "hight": 79.563, "latitude": 23.469303, "longitude": 113.398506, "pitch": -35.42, "resolution": [1280, 720], "roll": 0.0, "yaw": 96.89}, "camera_id": 0, "global_pos": {"altitude": 136.96365356445312, "latitude": 23.469303658812876, "longitude": 113.39850952270758}, "objs": [{"bbox": {"h": 0.0529, "w": 0.0148, "x": 0.5289, "y": 0.697}, "cls_id": 30, "pic": "None", "pos": {"altitude": 57.39399719238281, "latitude": 23.46919529928165, "longitude": 113.3993550361751}, "timestamp": 3757310, "track_id": 1}, {"bbox": {"h": 0.0529, "w": 0.0132, "x": 0.6171, "y": 0.5081}, "cls_id": 30, "pic": "None", "pos": {"altitude": 57.39399719238281, "latitude": 23.469143998799744, "longitude": 113.39945566174782}, "timestamp": 3757310, "track_id": 2}, {"bbox": {"h": 0.0502, "w": 0.0101, "x": 0.3312, "y": 0.5855}, "cls_id": 30, "pic": "None", "pos": {"altitude": 57.39399719238281, "latitude": 23.469272230685533, "longitude": 113.39942705875195}, "timestamp": 3757310, "track_id": 3}, {"bbox": {"h": 0.0502, "w": 0.0117, "x": 0.4617, "y": 0.4252}, "cls_id": 30, "pic": "None", "pos": {"altitude": 57.39399719238281, "latitude": 23.46920698234856, "longitude": 113.39951840852697}, "timestamp": 3757310, "track_id": 4}], "push_count": 336, "time": 1703578461215, "uav_id": "TH7923461373"}
{"obj_cnt": 4, "camera": {"focal_type": "tele", "fov": [26.027658, 14.469606], "hight": 79.563, "latitude": 23.469303, "longitude": 113.398506, "pitch": -35.42, "resolution": [1280, 720], "roll": 0.0, "yaw": 96.89}, "camera_id": 0, "global_pos": {"altitude": 136.96365356445312, "latitude": 23.469303658812876, "longitude": 113.39850952270758}, "objs": [{"bbox": {"h": 0.0529, "w": 0.0148, "x": 0.5289, "y": 0.6956}, "cls_id": 30, "pic": "None", "pos": {"altitude": 57.39399719238281, "latitude": 23.469195210534775, "longitude": 113.39935575454388}, "timestamp": 3757331, "track_id": 1}, {"bbox": {"h": 0.0529, "w": 0.0132, "x": 0.6171, "y": 0.5081}, "cls_id": 30, "pic": "None", "pos": {"altitude": 57.39399719238281, "latitude": 23.469143998799744, "longitude": 113.39945566174782}, "timestamp": 3757331, "track_id": 2}, {"bbox": {"h": 0.0502, "w": 0.0101, "x": 0.3304, "y": 0.5855}, "cls_id": 30, "pic": "None", "pos": {"altitude": 57.39399719238281, "latitude": 23.46927256842527, "longitude": 113.39942710324307}, "timestamp": 3757331, "track_id": 3}, {"bbox": {"h": 0.0502, "w": 0.0117, "x": 0.4617, "y": 0.4252}, "cls_id": 30, "pic": "None", "pos": {"altitude": 57.39399719238281, "latitude": 23.46920698234856, "longitude": 113.39951840852697}, "timestamp": 3757331, "track_id": 4}], "push_count": 337, "time": 1703578461237, "uav_id": "TH7923461373"}
{"obj_cnt": 4, "camera": {"focal_type": "tele", "fov": [26.027658, 14.469606], "hight": 79.563, "latitude": 23.469303, "longitude": 113.398506, "pitch": -35.42, "resolution": [1280, 720], "roll": 0.0, "yaw": 96.89}, "camera_id": 0, "global_pos": {"altitude": 136.96365356445312, "latitude": 23.469303658812876, "longitude": 113.39850952270758}, "objs": [{"bbox": {"h": 0.0529, "w": 0.0148, "x": 0.5289, "y": 0.6956}, "cls_id": 30, "pic": "None", "pos": {"altitude": 57.39399719238281, "latitude": 23.469195210534775, "longitude": 113.39935575454388}, "timestamp": 3757384, "track_id": 1}, {"bbox": {"h": 0.0543, "w": 0.0125, "x": 0.6171, "y": 0.5081}, "cls_id": 30, "pic": "None", "pos": {"altitude": 57.39399719238281, "latitude": 23.469144217529266, "longitude": 113.39945525663484}, "timestamp": 3757384, "track_id": 2}, {"bbox": {"h": 0.0502, "w": 0.0101, "x": 0.3304, "y": 0.5869}, "cls_id": 30, "pic": "None", "pos": {"altitude": 57.39399719238281, "latitude": 23.469272611545026, "longitude": 113.39942630147986}, "timestamp": 3757384, "track_id": 3}, {"bbox": {"h": 0.0502, "w": 0.0117, "x": 0.4617, "y": 0.4266}, "cls_id": 30, "pic": "None", "pos": {"altitude": 57.39399719238281, "latitude": 23.469207074918582, "longitude": 113.39951747835768}, "timestamp": 3757384, "track_id": 4}], "push_count": 338, "time": 1703578461289, "uav_id": "TH7923461373"}
{"obj_cnt": 4, "camera": {"focal_type": "tele", "fov": [26.027658, 14.469606], "hight": 79.563, "latitude": 23.469303, "longitude": 113.398506, "pitch": -35.42, "resolution": [1280, 720], "roll": 0.0, "yaw": 96.89}, "camera_id": 0, "global_pos": {"altitude": 136.96365356445312, "latitude": 23.469303658812876, "longitude": 113.39850952270758}, "objs": [{"bbox": {"h": 0.0529, "w": 0.0148, "x": 0.5289, "y": 0.697}, "cls_id": 30, "pic": "None", "pos": {"altitude": 57.39399719238281, "latitude": 23.46919529928165, "longitude": 113.3993550361751}, "timestamp": 3757471, "track_id": 1}, {"bbox": {"h": 0.0543, "w": 0.0125, "x": 0.6171, "y": 0.5081}, "cls_id": 30, "pic": "None", "pos": {"altitude": 57.39399719238281, "latitude": 23.469144217529266, "longitude": 113.39945525663484}, "timestamp": 3757471, "track_id": 2}, {"bbox": {"h": 0.0502, "w": 0.0101, "x": 0.3312, "y": 0.5855}, "cls_id": 30, "pic": "None", "pos": {"altitude": 57.39399719238281, "latitude": 23.469272230685533, "longitude": 113.39942705875195}, "timestamp": 3757471, "track_id": 3}, {"bbox": {"h": 0.0489, "w": 0.0117, "x": 0.4617, "y": 0.4266}, "cls_id": 30, "pic": "None", "pos": {"altitude": 57.39399719238281, "latitude": 23.469207031956525, "longitude": 113.39951791005228}, "timestamp": 3757471, "track_id": 4}], "push_count": 339, "time": 1703578461376, "uav_id": "TH7923461373"}
{"obj_cnt": 4, "camera": {"focal_type": "tele", "fov": [26.027658, 14.469606], "hight": 79.567, "latitude": 23.469303, "longitude": 113.398506, "pitch": -35.42, "resolution": [1280, 720], "roll": 0.0, "yaw": 96.89}, "camera_id": 0, "global_pos": {"altitude": 136.9521942138672, "latitude": 23.469303765051595, "longitude": 113.39850944530211}, "objs": [{"bbox": {"h": 0.0529, "w": 0.0148, "x": 0.5289, "y": 0.697}, "cls_id": 30, "pic": "None", "pos": {"altitude": 57.38999938964844, "latitude": 23.469195293824676, "longitude": 113.39935507871097}, "timestamp": 3757533, "track_id": 1}, {"bbox": {"h": 0.0543, "w": 0.0132, "x": 0.6171, "y": 0.5081}, "cls_id": 30, "pic": "None", "pos": {"altitude": 57.38999938964844, "latitude": 23.469144056387226, "longitude": 113.39945528403587}, "timestamp": 3757533, "track_id": 2}, {"bbox": {"h": 0.0502, "w": 0.0101, "x": 0.3312, "y": 0.5855}, "cls_id": 30, "pic": "None", "pos": {"altitude": 57.38999938964844, "latitude": 23.46927222909411, "longitude": 113.39942710490676}, "timestamp": 3757533, "track_id": 3}, {"bbox": {"h": 0.0489, "w": 0.0117, "x": 0.4617, "y": 0.4266}, "cls_id": 30, "pic": "None", "pos": {"altitude": 57.38999938964844, "latitude": 23.46920702708904, "longitude": 113.39951796077209}, "timestamp": 3757533, "track_id": 4}], "push_count": 340, "time": 1703578461439, "uav_id": "TH7923461373"}
